{
        "872": {
        "stop_code": "",
        "stop_name": "Rautakatu",
        "stop_desc": "",
        "stop_lat": 60.45026,
        "stop_lon": 22.30602,
        "zone_id": "F\u00d6LI",
        "stop_url": "",
        "location_type": 0,
        "parent_station": 0,
        "stop_timezone": "Europe\/Helsinki"
    },
    "1305": {
        "stop_code": "",
        "stop_name": "Telakka",
        "stop_desc": "",
        "stop_lat": 60.37345,
        "stop_lon": 22.12542,
        "zone_id": "F\u00d6LI",
        "stop_url": "",
        "location_type": 0,
        "parent_station": 0,
        "stop_timezone": "Europe\/Helsinki"
    },
    "551": {
        "stop_code": "",
        "stop_name": "Ykk\u00f6spirtti",
        "stop_desc": "",
        "stop_lat": 60.42676,
        "stop_lon": 22.1072,
        "zone_id": "F\u00d6LI",
        "stop_url": "",
        "location_type": 0,
        "parent_station": 0,
        "stop_timezone": "Europe\/Helsinki"
    },
    "1037": {
        "stop_code": "",
        "stop_name": "Vaapukkatie",
        "stop_desc": "",
        "stop_lat": 60.4421,
        "stop_lon": 22.30966,
        "zone_id": "F\u00d6LI",
        "stop_url": "",
        "location_type": 0,
        "parent_station": 0,
        "stop_timezone": "Europe\/Helsinki"
    },
    "1056": {
        "stop_code": "",
        "stop_name": "Ruohonp\u00e4\u00e4nkatu",
        "stop_desc": "",
        "stop_lat": 60.46414,
        "stop_lon": 22.24172,
        "zone_id": "F\u00d6LI",
        "stop_url": "",
        "location_type": 0,
        "parent_station": 0,
        "stop_timezone": "Europe\/Helsinki"
    },
    "5215": {
        "stop_code": "",
        "stop_name": "Vilkkim\u00e4ki",
        "stop_desc": "",
        "stop_lat": 60.52786,
        "stop_lon": 22.42758,
        "zone_id": "F\u00d6LI",
        "stop_url": "",
        "location_type": 0,
        "parent_station": 0,
        "stop_timezone": "Europe\/Helsinki"
    },
    "1511": {
        "stop_code": "",
        "stop_name": "Paavolanaukio",
        "stop_desc": "",
        "stop_lat": 60.45697,
        "stop_lon": 22.17405,
        "zone_id": "F\u00d6LI",
        "stop_url": "",
        "location_type": 0,
        "parent_station": 0,
        "stop_timezone": "Europe\/Helsinki"
    },
    "1661": {
        "stop_code": "",
        "stop_name": "Kuralankaarre",
        "stop_desc": "",
        "stop_lat": 60.46132,
        "stop_lon": 22.32738,
        "zone_id": "F\u00d6LI",
        "stop_url": "",
        "location_type": 0,
        "parent_station": 0,
        "stop_timezone": "Europe\/Helsinki"
    },
    "1163": {
        "stop_code": "",
        "stop_name": "Yli-Rokki",
        "stop_desc": "",
        "stop_lat": 60.61095,
        "stop_lon": 22.41427,
        "zone_id": "F\u00d6LI",
        "stop_url": "",
        "location_type": 0,
        "parent_station": 0,
        "stop_timezone": "Europe\/Helsinki"
    },
    "37": {
        "stop_code": "",
        "stop_name": "Varkkavuorenkatu",
        "stop_desc": "",
        "stop_lat": 60.46606,
        "stop_lon": 22.24871,
        "zone_id": "F\u00d6LI",
        "stop_url": "",
        "location_type": 0,
        "parent_station": 0,
        "stop_timezone": "Europe\/Helsinki"
    },
    "4053": {
        "stop_code": "",
        "stop_name": "Ojalantie",
        "stop_desc": "",
        "stop_lat": 60.58331,
        "stop_lon": 22.26646,
        "zone_id": "F\u00d6LI",
        "stop_url": "",
        "location_type": 0,
        "parent_station": 0,
        "stop_timezone": "Europe\/Helsinki"
    },
    "6237": {
        "stop_code": "",
        "stop_name": "Korvenm\u00e4ki",
        "stop_desc": "",
        "stop_lat": 60.42476,
        "stop_lon": 22.5309,
        "zone_id": "F\u00d6LI",
        "stop_url": "",
        "location_type": 0,
        "parent_station": 0,
        "stop_timezone": "Europe\/Helsinki"
    },
    "5116": {
        "stop_code": "",
        "stop_name": "Hietalantie",
        "stop_desc": "",
        "stop_lat": 60.57212,
        "stop_lon": 22.46517,
        "zone_id": "F\u00d6LI",
        "stop_url": "",
        "location_type": 0,
        "parent_station": 0,
        "stop_timezone": "Europe\/Helsinki"
    },
    "3168": {
        "stop_code": "",
        "stop_name": "Aatilantie",
        "stop_desc": "",
        "stop_lat": 60.3451,
        "stop_lon": 21.97666,
        "zone_id": "F\u00d6LI",
        "stop_url": "",
        "location_type": 0,
        "parent_station": 0,
        "stop_timezone": "Europe\/Helsinki"
    },
    "4028": {
        "stop_code": "",
        "stop_name": "M\u00e4nnist\u00f6ntie",
        "stop_desc": "",
        "stop_lat": 60.54618,
        "stop_lon": 22.23944,
        "zone_id": "F\u00d6LI",
        "stop_url": "",
        "location_type": 0,
        "parent_station": 0,
        "stop_timezone": "Europe\/Helsinki"
    },
    "5408": {
        "stop_code": "",
        "stop_name": "H\u00e4meen H\u00e4rk\u00e4tie 314",
        "stop_desc": "",
        "stop_lat": 60.56667,
        "stop_lon": 22.70214,
        "zone_id": "F\u00d6LI",
        "stop_url": "",
        "location_type": 0,
        "parent_station": 0,
        "stop_timezone": "Europe\/Helsinki"
    },
    "908": {
        "stop_code": "",
        "stop_name": "Kaakelitehdas",
        "stop_desc": "",
        "stop_lat": 60.45711,
        "stop_lon": 22.23662,
        "zone_id": "F\u00d6LI",
        "stop_url": "",
        "location_type": 0,
        "parent_station": 0,
        "stop_timezone": "Europe\/Helsinki"
    },
    "2145": {
        "stop_code": "",
        "stop_name": "Peltopohjankatu",
        "stop_desc": "",
        "stop_lat": 60.48981,
        "stop_lon": 22.20247,
        "zone_id": "F\u00d6LI",
        "stop_url": "",
        "location_type": 0,
        "parent_station": 0,
        "stop_timezone": "Europe\/Helsinki"
    },
    "1728": {
        "stop_code": "",
        "stop_name": "Syrj\u00e4l\u00e4ntie",
        "stop_desc": "",
        "stop_lat": 60.40932,
        "stop_lon": 22.16282,
        "zone_id": "F\u00d6LI",
        "stop_url": "",
        "location_type": 0,
        "parent_station": 0,
        "stop_timezone": "Europe\/Helsinki"
    },
    "2043": {
        "stop_code": "",
        "stop_name": "Raision vesitorni",
        "stop_desc": "",
        "stop_lat": 60.48125,
        "stop_lon": 22.10315,
        "zone_id": "F\u00d6LI",
        "stop_url": "",
        "location_type": 0,
        "parent_station": 0,
        "stop_timezone": "Europe\/Helsinki"
    },
    "2078": {
        "stop_code": "",
        "stop_name": "Konsanm\u00e4ki",
        "stop_desc": "",
        "stop_lat": 60.47645,
        "stop_lon": 22.15696,
        "zone_id": "F\u00d6LI",
        "stop_url": "",
        "location_type": 0,
        "parent_station": 0,
        "stop_timezone": "Europe\/Helsinki"
    },
    "573": {
        "stop_code": "",
        "stop_name": "Marjaniementie",
        "stop_desc": "",
        "stop_lat": 60.43842,
        "stop_lon": 22.19617,
        "zone_id": "F\u00d6LI",
        "stop_url": "",
        "location_type": 0,
        "parent_station": 0,
        "stop_timezone": "Europe\/Helsinki"
    },
    "1579": {
        "stop_code": "",
        "stop_name": "Pohjoiskaari",
        "stop_desc": "",
        "stop_lat": 60.48333,
        "stop_lon": 22.27372,
        "zone_id": "F\u00d6LI",
        "stop_url": "",
        "location_type": 0,
        "parent_station": 0,
        "stop_timezone": "Europe\/Helsinki"
    },
    "1313": {
        "stop_code": "",
        "stop_name": "Telakka",
        "stop_desc": "",
        "stop_lat": 60.37343,
        "stop_lon": 22.12544,
        "zone_id": "F\u00d6LI",
        "stop_url": "",
        "location_type": 0,
        "parent_station": 0,
        "stop_timezone": "Europe\/Helsinki"
    },
    "6725": {
        "stop_code": "",
        "stop_name": "Paimion vanhainkoti",
        "stop_desc": "",
        "stop_lat": 60.48238,
        "stop_lon": 22.69111,
        "zone_id": "V-S ELY",
        "stop_url": "",
        "location_type": 0,
        "parent_station": 0,
        "stop_timezone": "Europe\/Helsinki"
    },
    "6201": {
        "stop_code": "",
        "stop_name": "Suitsikatu",
        "stop_desc": "",
        "stop_lat": 60.40781,
        "stop_lon": 22.35379,
        "zone_id": "F\u00d6LI",
        "stop_url": "",
        "location_type": 0,
        "parent_station": 0,
        "stop_timezone": "Europe\/Helsinki"
    },
    "1562": {
        "stop_code": "",
        "stop_name": "Rieskal\u00e4hteentie",
        "stop_desc": "",
        "stop_lat": 60.47423,
        "stop_lon": 22.25922,
        "zone_id": "F\u00d6LI",
        "stop_url": "",
        "location_type": 0,
        "parent_station": 0,
        "stop_timezone": "Europe\/Helsinki"
    },
    "681": {
        "stop_code": "",
        "stop_name": "Raisionjoki",
        "stop_desc": "",
        "stop_lat": 60.44754,
        "stop_lon": 22.20315,
        "zone_id": "F\u00d6LI",
        "stop_url": "",
        "location_type": 0,
        "parent_station": 0,
        "stop_timezone": "Europe\/Helsinki"
    },
    "1726": {
        "stop_code": "",
        "stop_name": "Vanha Pikisaarentie",
        "stop_desc": "",
        "stop_lat": 60.4182,
        "stop_lon": 22.20457,
        "zone_id": "F\u00d6LI",
        "stop_url": "",
        "location_type": 0,
        "parent_station": 0,
        "stop_timezone": "Europe\/Helsinki"
    },
    "1790": {
        "stop_code": "",
        "stop_name": "Kiiraskuja",
        "stop_desc": "",
        "stop_lat": 60.54327,
        "stop_lon": 22.29944,
        "zone_id": "F\u00d6LI",
        "stop_url": "",
        "location_type": 0,
        "parent_station": 0,
        "stop_timezone": "Europe\/Helsinki"
    },
    "1965": {
        "stop_code": "",
        "stop_name": "Nokiankatu",
        "stop_desc": "",
        "stop_lat": 60.43607,
        "stop_lon": 22.25144,
        "zone_id": "F\u00d6LI",
        "stop_url": "",
        "location_type": 0,
        "parent_station": 0,
        "stop_timezone": "Europe\/Helsinki"
    },
    "6310": {
        "stop_code": "",
        "stop_name": "Empola",
        "stop_desc": "",
        "stop_lat": 60.38958,
        "stop_lon": 22.38595,
        "zone_id": "F\u00d6LI",
        "stop_url": "",
        "location_type": 0,
        "parent_station": 0,
        "stop_timezone": "Europe\/Helsinki"
    },
    "2010": {
        "stop_code": "",
        "stop_name": "Raision keskusta",
        "stop_desc": "",
        "stop_lat": 60.48627,
        "stop_lon": 22.1652,
        "zone_id": "F\u00d6LI",
        "stop_url": "",
        "location_type": 0,
        "parent_station": 0,
        "stop_timezone": "Europe\/Helsinki"
    },
    "826": {
        "stop_code": "",
        "stop_name": "Kankareenkuja",
        "stop_desc": "",
        "stop_lat": 60.46969,
        "stop_lon": 22.24116,
        "zone_id": "F\u00d6LI",
        "stop_url": "",
        "location_type": 0,
        "parent_station": 0,
        "stop_timezone": "Europe\/Helsinki"
    },
    "471": {
        "stop_code": "",
        "stop_name": "It\u00e4kaari",
        "stop_desc": "",
        "stop_lat": 60.43099,
        "stop_lon": 22.33001,
        "zone_id": "F\u00d6LI",
        "stop_url": "",
        "location_type": 0,
        "parent_station": 0,
        "stop_timezone": "Europe\/Helsinki"
    },
    "5360": {
        "stop_code": "",
        "stop_name": "Littoisten koulu",
        "stop_desc": "",
        "stop_lat": 60.45147,
        "stop_lon": 22.4113,
        "zone_id": "F\u00d6LI",
        "stop_url": "",
        "location_type": 0,
        "parent_station": 0,
        "stop_timezone": "Europe\/Helsinki"
    },
    "1826": {
        "stop_code": "",
        "stop_name": "Nummen koulu",
        "stop_desc": "",
        "stop_lat": 60.46156,
        "stop_lon": 22.2961,
        "zone_id": "F\u00d6LI",
        "stop_url": "",
        "location_type": 0,
        "parent_station": 0,
        "stop_timezone": "Europe\/Helsinki"
    },
    "858": {
        "stop_code": "",
        "stop_name": "Luolavuorentie",
        "stop_desc": "",
        "stop_lat": 60.43939,
        "stop_lon": 22.27055,
        "zone_id": "F\u00d6LI",
        "stop_url": "",
        "location_type": 0,
        "parent_station": 0,
        "stop_timezone": "Europe\/Helsinki"
    },
    "515": {
        "stop_code": "",
        "stop_name": "Ilpoistenrinne",
        "stop_desc": "",
        "stop_lat": 60.4152,
        "stop_lon": 22.28309,
        "zone_id": "F\u00d6LI",
        "stop_url": "",
        "location_type": 0,
        "parent_station": 0,
        "stop_timezone": "Europe\/Helsinki"
    },
    "1289": {
        "stop_code": "",
        "stop_name": "Kierl\u00e4ntie",
        "stop_desc": "",
        "stop_lat": 60.34844,
        "stop_lon": 22.21016,
        "zone_id": "F\u00d6LI",
        "stop_url": "",
        "location_type": 0,
        "parent_station": 0,
        "stop_timezone": "Europe\/Helsinki"
    },
    "924": {
        "stop_code": "",
        "stop_name": "Uimalankatu",
        "stop_desc": "",
        "stop_lat": 60.42428,
        "stop_lon": 22.25429,
        "zone_id": "F\u00d6LI",
        "stop_url": "",
        "location_type": 0,
        "parent_station": 0,
        "stop_timezone": "Europe\/Helsinki"
    },
    "122": {
        "stop_code": "",
        "stop_name": "Kotim\u00e4enkatu",
        "stop_desc": "",
        "stop_lat": 60.45794,
        "stop_lon": 22.31902,
        "zone_id": "F\u00d6LI",
        "stop_url": "",
        "location_type": 0,
        "parent_station": 0,
        "stop_timezone": "Europe\/Helsinki"
    }
}